[
  { "nombre": "Villa Coyoacán", "cp": "04000", "lat": 19.3054012, "lng": -99.169271 },
  { "nombre": "Barrio Santa Catarina", "cp": "04010", "lat": 19.350132, "lng": -99.1746519 },
  { "nombre": "La Concepción", "cp": "04020", "lat": 19.3446688, "lng": -99.1574032 },
  { "nombre": "Barrio San Lucas", "cp": "04030", "lat": 19.3156259, "lng": -99.1329683 },
  { "nombre": "Del Carmen", "cp": "04100", "lat": 19.3542897, "lng": -99.1617971 },
  { "nombre": "San Diego Churubusco", "cp": "04120", "lat": 19.355727, "lng": -99.1490005 },
  { "nombre": "Campestre Churubusco", "cp": "04200", "lat": 19.346188, "lng": -99.1356291 },
  { "nombre": "Churubusco Country Club", "cp": "04210", "lat": 19.346188, "lng": -99.1356291 },
  { "nombre": "Country Club", "cp": "04220", "lat": 19.351638, "lng": -99.1431157 },
  { "nombre": "Ajusco", "cp": "04300", "lat": 19.3190897, "lng": -99.1609606 },
  { "nombre": "Romero de Terreros", "cp": "04310", "lat": 19.3457792, "lng": -99.1698209 },
  { "nombre": "Oxtopulco Universidad", "cp": "04318", "lat": 19.3445064, "lng": -99.1791524 },
  { "nombre": "Cuadrante de San Francisco", "cp": "04320", "lat": 19.343206, "lng": -99.1642939 },
  { "nombre": "Barrio del Niño Jesús", "cp": "04330", "lat": 19.3420808, "lng": -99.1585334 },
  { "nombre": "Copilco El Bajo", "cp": "04340", "lat": 19.3377288, "lng": -99.1849908 },
  { "nombre": "Copilco Universidad", "cp": "04360", "lat": 19.321597, "lng": -99.1849259 },
  { "nombre": "Pedregal de Santo Domingo", "cp": "04369", "lat": 19.3271575, "lng": -99.1678565 },
  { "nombre": "Barrio La Candelaria", "cp": "04380", "lat": 19.3420808, "lng": -99.1585334 },
  { "nombre": "Educación", "cp": "04400", "lat": 19.335412, "lng": -99.1321437 },
  { "nombre": "Avante", "cp": "04460", "lat": 19.3299678, "lng": -99.138619 },
  { "nombre": "Ciudad Universitaria", "cp": "04510", "lat": 19.3229326, "lng": -99.1884887 },
  { "nombre": "Xotepingo", "cp": "04610", "lat": 19.3341407, "lng": -99.1427983 },
  { "nombre": "Adolfo Ruiz Cortines", "cp": "04630", "lat": 19.3052509, "lng": -99.2030859 },
  { "nombre": "El Reloj", "cp": "04640", "lat": 19.3181581, "lng": -99.1392557 },
  { "nombre": "Santa Úrsula Coapa", "cp": "04650", "lat": 19.3089302, "lng": -99.1423807 },
  { "nombre": "Bosques de Tetlameya", "cp": "04730", "lat": 19.2989654, "lng": -99.1539411 },
  { "nombre": "Prados de Coyoacán", "cp": "04810", "lat": 19.3189266, "lng": -99.1323988 },
  { "nombre": "Los Cipreses", "cp": "04830", "lat": 19.3190039, "lng": -99.1278899 },
  { "nombre": "Jardines de Coyoacán", "cp": "04890", "lat": 19.3141139, "lng": -99.1268723 },
  { "nombre": "Carmen Serdán", "cp": "04910", "lat": 19.3199655, "lng": -99.108329 },
  { "nombre": "Villa Quietud", "cp": "04960", "lat": 19.3035973, "lng": -99.1057616 }
]
